stop_id,stop_code,stop_name,stop_desc,stop_lat,stop_lon,zone_id,stop_url,location_type,parent_station,stop_timezone,wheelchair_boarding                                                                                                                                                                                                                       
71801,,Estación de tren Barcelona-Sants,,41.37922,2.140624,,,,,Europe/Madrid,1                                                                                                                                                                                                                                                                                
61307,,Estación de tren Cartagena,,37.6049670,-0.9751220,,,,,Europe/Madrid,1                                                                                                                                                                                                                                                                                  
61304,,Estación de tren Torre-Pacheco,,37.7469050,-0.9670780,,,,,Europe/Madrid,2                                                                                                                                                                                                                                                                              
61303,,Estación de tren Balsicas-Mar Menor,,37.8188400,-0.9508910,,,,,Europe/Madrid,2                                                                                                                                                                                                                                                                         
61200,,Estación de tren Murcia,,37.97465,-1.1299555,,,,,Europe/Madrid,1                                                                                                                                                                                                                                                                                       
62002,,Estación de tren Orihuela-Miguel Hernandez,,38.0779194,-0.94445,,,,,Europe/Madrid,2                                                                                                                                                                                                                                                                    
62103,,Estación de tren Elche Parque/elx Parc,,38.2717784,-0.6952109,,,,,Europe/Madrid,2                                                                                                                                                                                                                                                                      
60911,,Estación de tren Alicante/alacant,,38.34445,-0.4950527,,,,,Europe/Madrid,1                                                                                                                                                                                                                                                                             
60905,,Estación de tren Elda-Petrer,,38.4848790,-0.8010900,,,,,Europe/Madrid,2                                                                                                                                                                                                                                                                                
60902,,Estación de tren Villena,,38.6317380,-0.8676890,,,,,Europe/Madrid,1                                                                                                                                                                                                                                                                                    
64100,,Estación de tren Xativa,,38.9920972,-0.5244888,,,,,Europe/Madrid,1                                                                                                                                                                                                                                                                                     
65000,,Estación de tren Valencia-Estacio del Nord,,39.4669346,-0.3771842,,,,,Europe/Madrid,1                                                                                                                                                                                                                                                                  
65300,,Estación de tren Castello,,39.9882552,-0.0524126,,,,,Europe/Madrid,1                                                                                                                                                                                                                                                                                   
65318,,Estación de tren Benicassim,,40.0579451,0.05776460,,,,,Europe/Madrid,2                                                                                                                                                                                                                                                                                 
65311,,Estación de tren Benicarlo-Penyiscola,,40.4276390,0.41521700,,,,,Europe/Madrid,1                                                                                                                                                                                                                                                                       
65312,,Estación de tren Vinaros,,40.4716820,0.45572700,,,,,Europe/Madrid,1                                                                                                                                                                                                                                                                                    
65402,,Estación de tren Laldea-Amposta-Tortosa,,40.7535420,0.61431400,,,,,Europe/Madrid,1                                                                                                                                                                                                                                                                     
65422,,Estación de tren CAMBRILS,,41.0816480,1.0460550,,,,,Europe/Madrid,2                                                                                                                                                                                                                                                                                    
71500,,Estación de tren Tarragona,,41.1116240,1.25321400,,,,,Europe/Madrid,1                                                                                                                                                                                                                                                                                  
17000,,Estación de tren Madrid-Chamartin,,40.4720993,-3.6824687,,,,,Europe/Madrid,1                                                                                                                                                                                                                                                                           
37606,,Estación de tren Badajoz,,38.8906960,-6.9817530,,,,,Europe/Madrid,1                                                                                                                                                                                                                                                                                    
37603,,Estación de tren Montijo,,38.9135390,-6.5985770,,,,,Europe/Madrid,2                                                                                                                                                                                                                                                                                    
37500,,Estación de tren Merida,,38.9215030,-6.3437940,,,,,Europe/Madrid,1                                                                                                                                                                                                                                                                                     
35400,,Estación de tren Caceres,,39.4611310,-6.3856790,,,,,Europe/Madrid,1                                                                                                                                                                                                                                                                                    
30000,,Estación de tren Monfrague,,39.9374640,-6.1009100,,,,,Europe/Madrid,2                                                                                                                                                                                                                                                                                  
35206,,Estación de tren Navalmoral de La Mata,,39.8949130,-5.5456070,,,,,Europe/Madrid,2                                                                                                                                                                                                                                                                      
35203,,Estación de tren Oropesa de Toledo,,39.9217460,-5.1861370,,,,,Europe/Madrid,2                                                                                                                                                                                                                                                                          
35200,,Estación de tren Talavera de La Reina,,39.9706740,-4.8265120,,,,,Europe/Madrid,2                                                                                                                                                                                                                                                                       
35105,,Estación de tren Torrijos,,39.9790030,-4.2830370,,,,,Europe/Madrid,2                                                                                                                                                                                                                                                                                   
18000,,Estación de tren Madrid - Atocha Cercanias,,40.4061556,-3.6889579,,,,,Europe/Madrid,1                                                                                                                                                                                                                                                                  
35001,,Estación de tren Leganes,,40.3286349,-3.7711552,,,,,Europe/Madrid,2                                                                                                                                                                                                                                                                                    
56312,,Estación de tren Almeria,,36.8349510,-2.4555190,,,,,Europe/Madrid,1                                                                                                                                                                                                                                                                                    
56200,,Estación de tren Guadix,,37.3168730,-3.1272090,,,,,Europe/Madrid,2                                                                                                                                                                                                                                                                                     
56009,,Estación de tren Cabra del Santo Cristo Y Alicun,,37.6567129,-3.2626230,,,,,Europe/Madrid,2                                                                                                                                                                                                                                                            
56004,,Estación de tren Jodar-Ubeda,,37.9133430,-3.3489200,,,,,Europe/Madrid,2                                                                                                                                                                                                                                                                                
50300,,Estación de tren Linares-Baeza,,38.0688640,-3.5893960,,,,,Europe/Madrid,1                                                                                                                                                                                                                                                                              
60400,,Estación de tren Alcazar de San Juan,,39.3956280,-3.2057440,,,,,Europe/Madrid,1                                                                                                                                                                                                                                                                        
56100,,Estación de tren Moreda,,37.4312160,-3.3105160,,,,,Europe/Madrid,2                                                                                                                                                                                                                                                                                     
56301,,Estación de tren Finyana,,37.1846470,-2.8397570,,,,,Europe/Madrid,2                                                                                                                                                                                                                                                                                    
56308,,Estación de tren Gador,,36.9516240,-2.4876580,,,,,Europe/Madrid,2                                                                                                                                                                                                                                                                                      
11200,,Estación de tren Miranda de Ebro,,42.6910240,-2.9403660,,,,,Europe/Madrid,1                                                                                                                                                                                                                                                                            
13200,,Estación de tren Bilbao-Abando Indalecio Prieto,,43.259609,-2.92915,,,,,Europe/Madrid,1                                                                                                                                                                                                                                                                
13106,,Estación de tren Llodio,,43.142721,-2.959916,,,,,Europe/Madrid,2                                                                                                                                                                                                                                                                                       
11511,,Estación de tren San Sebastian/donostia,,43.317669,-1.976704,,,,,Europe/Madrid,1                                                                                                                                                                                                                                                                       
11208,,Estación de tren Vitoria/gasteiz,,42.8415170,-2.6726010,,,,,Europe/Madrid,1                                                                                                                                                                                                                                                                            
11300,,Estación de tren Altsasu/alsasua-Estacion,,42.8948470,-2.1812370,,,,,Europe/Madrid,2                                                                                                                                                                                                                                                                   
11400,,Estación de tren Zumarraga,,43.088273,-2.318462,,,,,Europe/Madrid,2                                                                                                                                                                                                                                                                                    
22308,,Estación de tren Vigo Guixar,,42.2392656,-8.7146089,,,,,Europe/Madrid,1                                                                                                                                                                                                                                                                                
94346,,Estación de tren Porto Campanha,,41.1489,-8.58544,,,,,Europe/Lisbon,1                                                                                                                                                                                                                                                                                  
94021,,Estación de tren Nine,,41.45534,-8.54513,,,,,Europe/Lisbon,1                                                                                                                                                                                                                                                                                           
94033,,Estación de tren Viana D Castelo,,41.69517,-8.83134,,,,,Europe/Lisbon,1                                                                                                                                                                                                                                                                                
22402,,Estación de tren Valenca Do Minho,,42.0247340,-8.6397450,,,,,Europe/Lisbon,2                                                                                                                                                                                                                                                                           
04104,,Estación de tren Camp Tarragona,,41.1920660,1.27266600,,,,,Europe/Madrid,1                                                                                                                                                                                                                                                                             
78400,,Estación de tren Lleida,,41.6206960,0.63266900,,,,,Europe/Madrid,1                                                                                                                                                                                                                                                                                     
04040,,Estación de tren Zaragoza-Delicias,,41.658649,-0.911615,,,,,Europe/Madrid,1                                                                                                                                                                                                                                                                            
81202,,Estación de tren Tudela de Navarra,,42.0594340,-1.5979310,,,,,Europe/Madrid,1                                                                                                                                                                                                                                                                          
81200,,Estación de tren Castejon de Ebro,,42.1727190,-1.6921140,,,,,Europe/Madrid,2                                                                                                                                                                                                                                                                           
81108,,Estación de tren Calahorra,,42.3104580,-1.9577550,,,,,Europe/Madrid,2                                                                                                                                                                                                                                                                                  
81100,,Estación de tren Logronyo,,42.4574590,-2.4421930,,,,,Europe/Madrid,1                                                                                                                                                                                                                                                                                   
81002,,Estación de tren Haro,,42.5836350,-2.8493960,,,,,Europe/Madrid,2                                                                                                                                                                                                                                                                                       
80100,,Estación de tren Pamplona/irunya,,42.8248770,-1.6614190,,,,,Europe/Madrid,1                                                                                                                                                                                                                                                                            
80108,,Estación de tren Tafalla,,42.5257560,-1.6714670,,,,,Europe/Madrid,2                                                                                                                                                                                                                                                                                    
20309,,Estación de tren Lugo,,43.0152220,-7.5521760,,,,,Europe/Madrid,1                                                                                                                                                                                                                                                                                       
22100,,Estación de tren Ourense,,42.3503890,-7.8727770,,,,,Europe/Madrid,1                                                                                                                                                                                                                                                                                    
20300,,Estación de tren Monforte de Lemos,,42.5296820,-7.5035890,,,,,Europe/Madrid,1                                                                                                                                                                                                                                                                          
20305,,Estación de tren Sarria,,42.7840490,-7.4188220,,,,,Europe/Madrid,2                                                                                                                                                                                                                                                                                     
60000,,Estación de tren Madrid-Puerta de Atocha,,40.4064420,-3.6908860,,,,,Europe/Madrid,1                                                                                                                                                                                                                                                                    
04007,,Estación de tren Guadalajara - Yebes,,40.5873150,-3.1243010,,,,,Europe/Madrid,1                                                                                                                                                                                                                                                                        
70600,,Estación de tren Calatayud,,41.3466920,-1.6386800,,,,,Europe/Madrid,1                                                                                                                                                                                                                                                                                  
11014,,Estación de tren Burgos-Rosa de Lima,,42.3711970,-3.6663080,,,,,Europe/Madrid,1                                                                                                                                                                                                                                                                        
14100,,Estación de tren Palencia,,42.0157110,-4.5341350,,,,,Europe/Madrid,1                                                                                                                                                                                                                                                                                   
15100,,Estación de tren Leon,,42.5960480,-5.5824280,,,,,Europe/Madrid,1                                                                                                                                                                                                                                                                                       
20100,,Estación de tren Astorga,,42.4594890,-6.0472120,,,,,Europe/Madrid,2                                                                                                                                                                                                                                                                                    
20111,,Estación de tren Bembibre,,42.6095580,-6.4220480,,,,,Europe/Madrid,2                                                                                                                                                                                                                                                                                   
20200,,Estación de tren Ponferrada,,42.5454290,-6.6023760,,,,,Europe/Madrid,1                                                                                                                                                                                                                                                                                 
20211,,Estación de tren O Barco de Valdeorras,,42.4183010,-6.9850300,,,,,Europe/Madrid,2                                                                                                                                                                                                                                                                      
20213,,Estación de tren A Rua-Petin,,42.3927600,-7.1132840,,,,,Europe/Madrid,2                                                                                                                                                                                                                                                                                
20216,,Estación de tren San Clodio-Quiroga,,42.4652710,-7.2871980,,,,,Europe/Madrid,2                                                                                                                                                                                                                                                                         
22300,,Estación de tren Redondela,,42.2860050,-8.6194020,,,,,Europe/Madrid,2                                                                                                                                                                                                                                                                                  
22200,,Estación de tren Guillarei,,42.0656630,-8.6225300,,,,,Europe/Madrid,2                                                                                                                                                                                                                                                                                  
22201,,Estación de tren O Porrinyo,,42.1641900,-8.6220200,,,,,Europe/Madrid,2                                                                                                                                                                                                                                                                                 
31412,,Estación de tren A Corunya,,43.3496932,-8.4155629,,,,,Europe/Madrid,1                                                                                                                                                                                                                                                                                  
31400,,Estación de tren Santiago de Compostela,,42.8708420,-8.5446970,,,,,Europe/Madrid,1                                                                                                                                                                                                                                                                     
30100,,Estación de tren Salamanca,,40.9722350,-5.6489900,,,,,Europe/Madrid,1                                                                                                                                                                                                                                                                                  
10600,,Estación de tren Valladolid,,41.6421670,-4.7269860,,,,,Europe/Madrid,1                                                                                                                                                                                                                                                                                 
10500,,Estación de tren Medina del Campo,,41.3176170,-4.9099230,,,,,Europe/Madrid,1                                                                                                                                                                                                                                                                           
51405,,Estación de tren Cadiz,,36.5290083,-6.2882055,,,,,Europe/Madrid,1                                                                                                                                                                                                                                                                                      
03216,,Estación de tren Valencia Joaquin Sorolla,,39.4590510,-0.3829230,,,,,Europe/Madrid,1                                                                                                                                                                                                                                                                   
60600,,Estación de tren Albacete-Los Llanos,,38.9993840,-1.8484500,,,,,Europe/Madrid,1                                                                                                                                                                                                                                                                        
60500,,Estación de tren Villarrobledo,,39.2608680,-2.5986210,,,,,Europe/Madrid,2                                                                                                                                                                                                                                                                              
60406,,Estación de tren Socuellamos,,39.2787760,-2.7755710,,,,,Europe/Madrid,2                                                                                                                                                                                                                                                                                
50100,,Estación de tren Manzanares,,39.0058370,-3.3705070,,,,,Europe/Madrid,2                                                                                                                                                                                                                                                                                 
50102,,Estación de tren Valdepenyas,,38.7628680,-3.3957200,,,,,Europe/Madrid,2                                                                                                                                                                                                                                                                                
50207,,Estación de tren Vilches,,38.2157420,-3.5175760,,,,,Europe/Madrid,2                                                                                                                                                                                                                                                                                    
50400,,Estación de tren Espeluy,,38.0102470,-3.8327260,,,,,Europe/Madrid,2                                                                                                                                                                                                                                                                                    
50403,,Estación de tren Andujar,,38.0282250,-4.0660360,,,,,Europe/Madrid,2                                                                                                                                                                                                                                                                                    
50500,,Estación de tren Cordoba,,37.8882910,-4.7894530,,,,,Europe/Madrid,1                                                                                                                                                                                                                                                                                    
51003,,Estación de tren Sevilla-Santa Justa,,37.3921277,-5.9752694,,,,,Europe/Madrid,1                                                                                                                                                                                                                                                                        
51300,,Estación de tren Jerez de La Frontera,,36.6800290,-6.1264716,,,,,Europe/Madrid,1                                                                                                                                                                                                                                                                       
51400,,Estación de tren Puerto de Santa Maria,,36.6037962,-6.2171641,,,,,Europe/Madrid,1                                                                                                                                                                                                                                                                      
51406,,Estación de tren San Fernando-Bahia Sur,,36.4680361,-6.2067638,,,,,Europe/Madrid,1                                                                                                                                                                                                                                                                     
81109,,Estación de tren Rincon de Soto,,42.2300110,-1.8474730,,,,,Europe/Madrid,2                                                                                                                                                                                                                                                                             
81110,,Estación de tren Alfaro,,42.1865250,-1.7479850,,,,,Europe/Madrid,2                                                                                                                                                                                                                                                                                     
04307,,Estación de tren Figueres Vilafant,,42.2647710,2.94354700,,,,,Europe/Madrid,1                                                                                                                                                                                                                                                                          
79300,,Estación de tren Girona,,41.9793030,2.81700600,,,,,Europe/Madrid,1                                                                                                                                                                                                                                                                                     
65200,,Estación de tren Sagunt/sagunto,,39.6756611,-0.2715972,,,,,Europe/Madrid,1                                                                                                                                                                                                                                                                             
65304,,Estación de tren Orpesa,,40.0922580,0.13986100,,,,,Europe/Madrid,2                                                                                                                                                                                                                                                                                     
54413,,Estación de tren Malaga Maria Zambrano,,36.7113388,-4.4313888,,,,,Europe/Madrid,1                                                                                                                                                                                                                                                                      
37300,,Estación de tren Puertollano,,38.6912800,-4.1116550,,,,,Europe/Madrid,1                                                                                                                                                                                                                                                                                
37200,,Estación de tren Ciudad Real,,38.9853000,-3.9136330,,,,,Europe/Madrid,1                                                                                                                                                                                                                                                                                
02003,,Estación de tren Antequera-Santa Ana,,37.0698810,-4.7190140,,,,,Europe/Madrid,1                                                                                                                                                                                                                                                                        
02002,,Estación de tren Puente Genil-Herrera,,37.3579000,-4.8216380,,,,,Europe/Madrid,1                                                                                                                                                                                                                                                                       
37704,,Estación de tren Villanueva de Cordoba-Los Pedroches,,38.2554049,-4.5709520,,,,,Europe/Madrid,2                                                                                                                                                                                                                                                        
05000,,Estación de tren Granada,,37.1840380,-3.6091540,,,,,Europe/Madrid,1                                                                                                                                                                                                                                                                                    
02030,,Estación de tren Antequera AV,,37.0334437,-4.5612901,,,,,Europe/Madrid,1                                                                                                                                                                                                                                                                               
05012,,Estación de tren Loja,,37.1753720,-4.1348410,,,,,Europe/Madrid,2                                                                                                                                                                                                                                                                                       
43019,,Estación de tren Huelva,,37.2530790,-6.9509710,,,,,Europe/Madrid,1                                                                                                                                                                                                                                                                                     
43011,,Estación de tren La Palma del Condado,,37.3906650,-6.5544440,,,,,Europe/Madrid,1                                                                                                                                                                                                                                                                       
74200,,Estación de tren Huesca,,42.1335940,-0.4097450,,,,,Europe/Madrid,1                                                                                                                                                                                                                                                                                     
78200,,Estación de tren Tardienta,,41.9757160,-0.5382230,,,,,Europe/Madrid,2                                                                                                                                                                                                                                                                                  
03208,,Estación de tren Cuenca Fernando Zobel,,40.0351920,-2.1444100,,,,,Europe/Madrid,1                                                                                                                                                                                                                                                                      
30200,,Estación de tren Zamora,,41.5158920,-5.7396750,,,,,Europe/Madrid,1                                                                                                                                                                                                                                                                                     
21010,,Estación de tren Ferrol,,43.4880349,-8.2311430,,,,,Europe/Madrid,1                                                                                                                                                                                                                                                                                     
08004,,Estación de tren Segovia Guiomar,,40.9105770,-4.0945640,,,,,Europe/Madrid,1                                                                                                                                                                                                                                                                            
08240,,Estación de tren Medina del Campo Alta Velocidad,,41.3174590,-4.9100710,,,,,Europe/Madrid,2                                                                                                                                                                                                                                                            
08247,,Estación de tren PUEBLA DE SANABRIA LLEGADA,,42.0457630,-6.6268480,,,,,Europe/Madrid,2                                                                                                                                                                                                                                                                 
08251,,Estación de tren A GUDIÑA-PORTA DE GALICIA,,42.0606439,-7.1325320,,,,,Europe/Madrid,2                                                                                                                                                                                                                                                                  
20400,,Estación de tren Betanzos-Infesta,,43.2706980,-8.2258470,,,,,Europe/Madrid,2                                                                                                                                                                                                                                                                           
21001,,Estación de tren Betanzos-Cidade,,43.2841370,-8.2158740,,,,,Europe/Madrid,2                                                                                                                                                                                                                                                                            
21004,,Estación de tren Pontedeume,,43.4117970,-8.1804160,,,,,Europe/Madrid,2                                                                                                                                                                                                                                                                                 
15410,,Estación de tren Gijon,,43.535175,-5.698318,,,,,Europe/Madrid,1                                                                                                                                                                                                                                                                                        
15211,,Estación de tren Oviedo,,43.366841,-5.854263,,,,,Europe/Madrid,1                                                                                                                                                                                                                                                                                       
14223,,Estación de tren Santander,,43.458575,-3.811223,,,,,Europe/Madrid,1                                                                                                                                                                                                                                                                                    
03309,,Estación de tren Villena Av,,38.5853020,-0.8732950,,,,,Europe/Madrid,2                                                                                                                                                                                                                                                                                 
14114,,Estación de tren Aguilar de Campoo,,42.7853620,-4.2338990,,,,,Europe/Madrid,2                                                                                                                                                                                                                                                                          
14213,,Estación de tren Torrelavega,,43.33974,-4.02896,,,,,Europe/Madrid,2                                                                                                                                                                                                                                                                                    
14202,,Estación de tren Reinosa,,42.995158,-4.139917,,,,,Europe/Madrid,2                                                                                                                                                                                                                                                                                      
11600,,Estación de tren Irun,,43.339582,-1.800192,,,,,Europe/Madrid,1                                                                                                                                                                                                                                                                                         
11500,,Estación de tren Tolosa,,43.131936,-2.085247,,,,,Europe/Madrid,2                                                                                                                                                                                                                                                                                       
20005,,Estación de tren Veguellina,,42.4335000,-5.8875600,,,,,Europe/Madrid,2                                                                                                                                                                                                                                                                                 
20104,,Estación de tren Branyuelas,,42.6326310,-6.2010020,,,,,Europe/Madrid,2                                                                                                                                                                                                                                                                                 
15203,,Estación de tren Mieres-Puente,,43.250027,-5.78028,,,,,Europe/Madrid,1                                                                                                                                                                                                                                                                                 
15122,,Estación de tren Pola de Lena,,43.158942,-5.831075,,,,,Europe/Madrid,2                                                                                                                                                                                                                                                                                 
03213,,Estación de tren Requena Utiel,,39.5198340,-1.1276010,,,,,Europe/Madrid,1                                                                                                                                                                                                                                                                              
08223,,Estación de tren Vigo Urzaiz,,42.2341890,-8.7137280,,,,,Europe/Madrid,1                                                                                                                                                                                                                                                                                
23004,,Estación de tren Pontevedra,,42.4219690,-8.6355460,,,,,Europe/Madrid,1                                                                                                                                                                                                                                                                                 
23008,,Estación de tren Vilagarcia de Arousa,,42.6021890,-8.7625230,,,,,Europe/Madrid,1                                                                                                                                                                                                                                                                       
20113,,Estación de tren San Miguel de Las Duenyas,,42.5863920,-6.5237760,,,,,Europe/Madrid,2                                                                                                                                                                                                                                                                  
20109,,Estación de tren Torre del Bierzo,,42.5955780,-6.3290830,,,,,Europe/Madrid,2                                                                                                                                                                                                                                                                           
20102,,Estación de tren Vega-Magaz,,42.5537600,-6.0682670,,,,,Europe/Madrid,2                                                                                                                                                                                                                                                                                 
03410,,Estación de tren ELX AV,,38.2455100,-0.7667500,,,,,Europe/Madrid,2                                                                                                                                                                                                                                                                                     
69110,,Estación de tren Gandia,,38.9702805,-0.1797722,,,,,Europe/Madrid,1                                                                                                                                                                                                                                                                                     
69104,,Estación de tren Cullera,,39.1778305,-0.2632361,,,,,Europe/Madrid,1                                                                                                                                                                                                                                                                                    
92102,,Estación de tren Toledo,,39.8622720,-4.0112440,,,,,Europe/Madrid,1                                                                                                                                                                                                                                                                                     
03412,,Estación de tren CALLOSA DE SEGURA - COX,,38.1227708,-0.8745727,,,,,Europe/Madrid,2                                                                                                                                                                                                                                                                    
62001,,Estación de tren Beniel,,38.0447361,-0.9994472,,,,,Europe/Madrid,2                                                                                                                                                                                                                                                                                     
31416,,Estación de tren Cerceda-Meirama,,43.2078791,-8.4467723,,,,,Europe/Madrid,2                                                                                                                                                                                                                                                                            
23021,,Estación de tren Padron-Barbanza,,42.7389670,-8.6526140,,,,,Europe/Madrid,2                                                                                                                                                                                                                                                                            
08224,,Estación de tren Redondela Av,,42.2860050,-8.6194020,,,,,Europe/Madrid,2                                                                                                                                                                                                                                                                               
23002,,Estación de tren Arcade,,42.3405490,-8.6111780,,,,,Europe/Madrid,2                                                                                                                                                                                                                                                                                     
99159,,Estación de tren Santiago-Turistico,,42.8708420,-8.5446970,,,,,Europe/Madrid,2                                                                                                                                                                                                                                                                         
99161,,Estación de tren Pontevedra-Turistico,,42.4219690,-8.6355460,,,,,Europe/Madrid,1                                                                                                                                                                                                                                                                       
99143,,Estación de tren A Coruna-Turistico,,43.3527610,-8.4097550,,,,,Europe/Madrid,2                                                                                                                                                                                                                                                                         
55020,,Estación de tren Algeciras,,36.1268310,-5.4511080,,,,,Europe/Madrid,1                                                                                                                                                                                                                                                                                  
55018,,Estación de tren San Roque-La Linea,,36.2144820,-5.4323990,,,,,Europe/Madrid,2                                                                                                                                                                                                                                                                         
55007,,Estación de tren Ronda,,36.7484010,-5.1619700,,,,,Europe/Madrid,1                                                                                                                                                                                                                                                                                      
99117,,Estación de tren Ourense Turistico,,42.3503890,-7.8727770,,,,,Europe/Madrid,2                                                                                                                                                                                                                                                                          
61015,,Estación de tren Archena-Fortuna,,38.1313200,-1.2360370,,,,,Europe/Madrid,2                                                                                                                                                                                                                                                                            
60200,,Estación de tren Aranjuez,,40.0348585,-3.6182315,,,,,Europe/Madrid,2                                                                                                                                                                                                                                                                                   
61012,,Estación de tren Cieza,,38.2466090,-1.4217020,,,,,Europe/Madrid,2                                                                                                                                                                                                                                                                                      
61005,,Estación de tren Hellin,,38.5087760,-1.6884370,,,,,Europe/Madrid,2                                                                                                                                                                                                                                                                                     
06006,,Estación de tren Lorca Sutullena,,37.6725714,-1.6959002,,,,,Europe/Madrid,2                                                                                                                                                                                                                                                                            
06002,,Estación de tren Alhama de Murcia,,37.8493837,-1.4145055,,,,,Europe/Madrid,2                                                                                                                                                                                                                                                                           
06003,,Estación de tren Totana,,37.7635101,-1.4956127,,,,,Europe/Madrid,2                                                                                                                                                                                                                                                                                     
10610,,Estación de tren Valladolid-Universidad,,41.6602570,-4.7040370,,,,,Europe/Madrid,2                                                                                                                                                                                                                                                                     
10602,,Estación de tren Cabezon del Pisuerga,,41.7372760,-4.6512940,,,,,Europe/Madrid,2                                                                                                                                                                                                                                                                       
10603,,Estación de tren Corcos-Aguilarejo,,41.7664460,-4.6234850,,,,,Europe/Madrid,2                                                                                                                                                                                                                                                                          
10604,,Estación de tren Cubillas de Santa Marta,,41.8088610,-4.5797540,,,,,Europe/Madrid,2                                                                                                                                                                                                                                                                    
10605,,Estación de tren Duenyas,,41.8704800,-4.5412160,,,,,Europe/Madrid,2                                                                                                                                                                                                                                                                                    
11000,,Estación de tren Venta de Banyos,,41.9173600,-4.4958440,,,,,Europe/Madrid,2                                                                                                                                                                                                                                                                            
15001,,Estación de tren Grijota,,42.0492250,-4.5839540,,,,,Europe/Madrid,2                                                                                                                                                                                                                                                                                    
15003,,Estación de tren Becerril,,42.1047060,-4.6471200,,,,,Europe/Madrid,2                                                                                                                                                                                                                                                                                   
15004,,Estación de tren Paredes de Nava,,42.1506940,-4.6975990,,,,,Europe/Madrid,2                                                                                                                                                                                                                                                                            
15007,,Estación de tren Villada,,42.2452380,-4.9705890,,,,,Europe/Madrid,2                                                                                                                                                                                                                                                                                    
15008,,Estación de tren Grajal,,42.3232460,-5.0133810,,,,,Europe/Madrid,2                                                                                                                                                                                                                                                                                     
15009,,Estación de tren Sahagun,,42.3693290,-5.0226670,,,,,Europe/Madrid,1                                                                                                                                                                                                                                                                                    
15012,,Estación de tren El Burgo Ranero,,42.4257530,-5.2085920,,,,,Europe/Madrid,2                                                                                                                                                                                                                                                                            
15015,,Estación de tren Palanquinos,,42.4607160,-5.4975840,,,,,Europe/Madrid,2                                                                                                                                                                                                                                                                                
15106,,Estación de tren La Robla,,42.8044540,-5.6262550,,,,,Europe/Madrid,2                                                                                                                                                                                                                                                                                   
15108,,Estación de tren La Pola de Gordon,,42.8540990,-5.6745240,,,,,Europe/Madrid,2                                                                                                                                                                                                                                                                          
15109,,Estación de tren Santa Lucia,,42.8751500,-5.6396130,,,,,Europe/Madrid,2                                                                                                                                                                                                                                                                                
15112,,Estación de tren Villamanin,,42.9367100,-5.6576370,,,,,Europe/Madrid,2                                                                                                                                                                                                                                                                                 
15113,,Estación de tren Busdongo,,42.9844950,-5.7053910,,,,,Europe/Madrid,2                                                                                                                                                                                                                                                                                   
15116,,Estación de tren Linares-Congostinas,,43.1017430,-5.7721620,,,,,Europe/Madrid,2                                                                                                                                                                                                                                                                        
15401,,Estación de tren Calzada de Asturias,,43.534132,-5.70981,,,,,Europe/Madrid,2                                                                                                                                                                                                                                                                           
15218,,Estación de tren Oviedo-Llamaquique,,43.355864,-5.855475,,,,,Europe/Madrid,1                                                                                                                                                                                                                                                                           
15200,,Estación de tren Ujo,,43.20702,-5.791496,,,,,Europe/Madrid,1                                                                                                                                                                                                                                                                                           
15120,,Estación de tren Campomanes,,43.11112,-5.814196,,,,,Europe/Madrid,2                                                                                                                                                                                                                                                                                    
15118,,Estación de tren Puente de Los Fierros,,43.07152,-5.769496,,,,,Europe/Madrid,2                                                                                                                                                                                                                                                                         
23000,,Estación de tren Redondela-Picota,,42.2868660,-8.6071180,,,,,Europe/Madrid,2                                                                                                                                                                                                                                                                           
23009,,Estación de tren Catoira,,42.6721660,-8.7252910,,,,,Europe/Madrid,2                                                                                                                                                                                                                                                                                    
23010,,Estación de tren Pontecesures,,42.7229850,-8.6521300,,,,,Europe/Madrid,2                                                                                                                                                                                                                                                                               
23011,,Estación de tren Padron,,42.7389670,-8.6526140,,,,,Europe/Madrid,2                                                                                                                                                                                                                                                                                     
31415,,Estación de tren Ordes,,43.0375440,-8.4484470,,,,,Europe/Madrid,2                                                                                                                                                                                                                                                                                      
31411,,Estación de tren Uxes,,43.2973740,-8.4444040,,,,,Europe/Madrid,2                                                                                                                                                                                                                                                                                       
23005,,Estación de tren Portela,,42.5178010,-8.6546090,,,,,Europe/Madrid,2                                                                                                                                                                                                                                                                                    
23013,,Estación de tren Osebe,,42.8252980,-8.6158400,,,,,Europe/Madrid,2                                                                                                                                                                                                                                                                                      
23018,,Estación de tren Pontevedra-Universidad,,42.4387499,-8.6304812,,,,,Europe/Madrid,2                                                                                                                                                                                                                                                                     
23001,,Estación de tren Cesantes,,42.3102580,-8.6165410,,,,,Europe/Madrid,2                                                                                                                                                                                                                                                                                   
20002,,Estación de tren Quintana-Raneros,,42.5500850,-5.6377890,,,,,Europe/Madrid,2                                                                                                                                                                                                                                                                           
20008,,Estación de tren Villavante,,42.4645800,-5.8389140,,,,,Europe/Madrid,2                                                                                                                                                                                                                                                                                 
20006,,Estación de tren Barrientos,,42.4143010,-5.9639880,,,,,Europe/Madrid,2                                                                                                                                                                                                                                                                                 
20007,,Estación de tren Nistal,,42.4244620,-6.0080300,,,,,Europe/Madrid,2                                                                                                                                                                                                                                                                                     
20103,,Estación de tren Porqueros,,42.5989350,-6.1082380,,,,,Europe/Madrid,2                                                                                                                                                                                                                                                                                  
20106,,Estación de tren La Granja de San Vicente,,42.6148740,-6.2824950,,,,,Europe/Madrid,2                                                                                                                                                                                                                                                                   
20214,,Estación de tren Montefurado,,42.3940200,-7.1984000,,,,,Europe/Madrid,2                                                                                                                                                                                                                                                                                
20212,,Estación de tren Vilamartin de Valdeorras,,42.4118290,-7.0611850,,,,,Europe/Madrid,2                                                                                                                                                                                                                                                                   
20210,,Estación de tren Sobradelo,,42.4148590,-6.9119510,,,,,Europe/Madrid,2                                                                                                                                                                                                                                                                                  
20208,,Estación de tren Querenyo,,42.4207040,-6.8294860,,,,,Europe/Madrid,2                                                                                                                                                                                                                                                                                   
20207,,Estación de tren Covas,,42.4753260,-6.8308780,,,,,Europe/Madrid,2                                                                                                                                                                                                                                                                                      
20204,,Estación de tren Toral de Los Vados,,42.5410520,-6.7767030,,,,,Europe/Madrid,2                                                                                                                                                                                                                                                                         
20203,,Estación de tren Villadepalos,,42.5368600,-6.7511090,,,,,Europe/Madrid,2                                                                                                                                                                                                                                                                               
22006,,Estación de tren Barra de Minyo,,42.4010950,-7.8025670,,,,,Europe/Madrid,2                                                                                                                                                                                                                                                                             
22005,,Estación de tren Os Peares,,42.4514390,-7.7355230,,,,,Europe/Madrid,2                                                                                                                                                                                                                                                                                  
22004,,Estación de tren San Pedro Do Sil,,42.4413530,-7.7041200,,,,,Europe/Madrid,2                                                                                                                                                                                                                                                                           
22003,,Estación de tren San Estevo Do Sil,,42.4269210,-7.6616760,,,,,Europe/Madrid,2                                                                                                                                                                                                                                                                          
22002,,Estación de tren Areas,,42.4577990,-7.6287900,,,,,Europe/Madrid,2                                                                                                                                                                                                                                                                                      
22001,,Estación de tren Canabal,,42.4828820,-7.5877330,,,,,Europe/Madrid,2                                                                                                                                                                                                                                                                                    
22110,,Estación de tren Caldelas,,42.0558130,-8.5663430,,,,,Europe/Madrid,2                                                                                                                                                                                                                                                                                   
22109,,Estación de tren Salvaterra de Minyo,,42.0816400,-8.4951410,,,,,Europe/Madrid,2                                                                                                                                                                                                                                                                        
22108,,Estación de tren As Neves,,42.0754620,-8.4200740,,,,,Europe/Madrid,2                                                                                                                                                                                                                                                                                   
22107,,Estación de tren Sela,,42.0920920,-8.3559980,,,,,Europe/Madrid,2                                                                                                                                                                                                                                                                                       
22106,,Estación de tren Arbo,,42.1070580,-8.3002470,,,,,Europe/Madrid,2                                                                                                                                                                                                                                                                                       
22105,,Estación de tren Pousa-Crecente,,42.1367050,-8.2348890,,,,,Europe/Madrid,2                                                                                                                                                                                                                                                                             
22104,,Estación de tren Frieira,,42.1548820,-8.2010360,,,,,Europe/Madrid,2                                                                                                                                                                                                                                                                                    
22103,,Estación de tren Filgueira,,42.2199170,-8.1847880,,,,,Europe/Madrid,2                                                                                                                                                                                                                                                                                  
22102,,Estación de tren Ribadavia,,42.2931000,-8.1392610,,,,,Europe/Madrid,2                                                                                                                                                                                                                                                                                  
20410,,Estación de tren Elvinya-Universidade,,43.3352220,-8.4130610,,,,,Europe/Madrid,2                                                                                                                                                                                                                                                                       
20404,,Estación de tren O Burgo Santiago,,43.3178410,-8.3687500,,,,,Europe/Madrid,2                                                                                                                                                                                                                                                                           
20403,,Estación de tren Cambre,,43.2905020,-8.3521040,,,,,Europe/Madrid,2                                                                                                                                                                                                                                                                                     
20402,,Estación de tren Cecebre,,43.2879130,-8.3077670,,,,,Europe/Madrid,2                                                                                                                                                                                                                                                                                    
20320,,Estación de tren Oza Dos Rios,,43.2187700,-8.1871110,,,,,Europe/Madrid,2                                                                                                                                                                                                                                                                               
20319,,Estación de tren Cesuras,,43.1730730,-8.2005000,,,,,Europe/Madrid,2                                                                                                                                                                                                                                                                                    
20318,,Estación de tren Pinyoi,,43.1279220,-8.1634980,,,,,Europe/Madrid,2                                                                                                                                                                                                                                                                                     
20317,,Estación de tren Curtis,,43.1272320,-8.1431550,,,,,Europe/Madrid,2                                                                                                                                                                                                                                                                                     
20316,,Estación de tren Teixeiro,,43.1414110,-8.0376900,,,,,Europe/Madrid,2                                                                                                                                                                                                                                                                                   
20314,,Estación de tren Guitiriz,,43.1790580,-7.8950390,,,,,Europe/Madrid,2                                                                                                                                                                                                                                                                                   
20313,,Estación de tren Parga,,43.1636440,-7.8373830,,,,,Europe/Madrid,2                                                                                                                                                                                                                                                                                      
20312,,Estación de tren Baamonde,,43.1734050,-7.7561280,,,,,Europe/Madrid,2                                                                                                                                                                                                                                                                                   
20310,,Estación de tren Rabade,,43.1213780,-7.6248350,,,,,Europe/Madrid,2                                                                                                                                                                                                                                                                                     
20306,,Estación de tren Pedrelo-Celtigos,,42.8329340,-7.3933290,,,,,Europe/Madrid,2                                                                                                                                                                                                                                                                           
21008,,Estación de tren Perlio,,43.4723090,-8.1748370,,,,,Europe/Madrid,2                                                                                                                                                                                                                                                                                     
21005,,Estación de tren Cabanas-Areal,,43.4155850,-8.1688280,,,,,Europe/Madrid,2                                                                                                                                                                                                                                                                              
21003,,Estación de tren Perbes,,43.3781970,-8.2011060,,,,,Europe/Madrid,2                                                                                                                                                                                                                                                                                     
21002,,Estación de tren Minyo,,43.3494310,-8.2073130,,,,,Europe/Madrid,2                                                                                                                                                                                                                                                                                      
21007,,Estación de tren Barallobre,,43.4628990,-8.1885860,,,,,Europe/Madrid,2                                                                                                                                                                                                                                                                                 
21009,,Estación de tren Neda,,43.4953510,-8.1609670,,,,,Europe/Madrid,2                                                                                                                                                                                                                                                                                       
31308,,Estación de tren Lalin,,42.6325300,-8.1427150,,,,,Europe/Madrid,2                                                                                                                                                                                                                                                                                      
31306,,Estación de tren O Irixo,,42.5197190,-8.1051740,,,,,Europe/Madrid,2                                                                                                                                                                                                                                                                                    
31304,,Estación de tren O Carballinyo,,42.4313400,-8.0688740,,,,,Europe/Madrid,2                                                                                                                                                                                                                                                                              
31303,,Estación de tren A Friela-Maside,,42.4114010,-8.0289670,,,,,Europe/Madrid,2                                                                                                                                                                                                                                                                            
51401,,Estación de tren Puerto Real,,36.5309277,-6.1861944,,,,,Europe/Madrid,1                                                                                                                                                                                                                                                                                
51205,,Estación de tren Jerez Aeropuerto,,36.751147,-6.066664,,,,,Europe/Madrid,2                                                                                                                                                                                                                                                                             
51203,,Estación de tren Lebrija,,36.9299735,-6.0864165,,,,,Europe/Madrid,1                                                                                                                                                                                                                                                                                    
51200,,Estación de tren Utrera,,37.1845444,-5.7907966,,,,,Europe/Madrid,1                                                                                                                                                                                                                                                                                     
51103,,Estación de tren Dos Hermanas,,37.2872,-5.9235192,,,,,Europe/Madrid,2                                                                                                                                                                                                                                                                                  
51110,,Estación de tren Sevilla-Virgen del Rocio,,37.3628,-5.9760111,,,,,Europe/Madrid,1                                                                                                                                                                                                                                                                      
51100,,Estación de tren Sevilla-San Bernardo,,37.3775194,-5.9796,,,,,Europe/Madrid,1                                                                                                                                                                                                                                                                          
03100,,Estación de tren Jaen,,37.7798270,-3.7907980,,,,,Europe/Madrid,1                                                                                                                                                                                                                                                                                       
50407,,Estación de tren Villa del Rio,,37.9813310,-4.2837880,,,,,Europe/Madrid,2                                                                                                                                                                                                                                                                              
50504,,Estación de tren Posadas,,37.8039860,-5.1063250,,,,,Europe/Madrid,2                                                                                                                                                                                                                                                                                    
50506,,Estación de tren Palma del Rio,,37.7180810,-5.2927600,,,,,Europe/Madrid,2                                                                                                                                                                                                                                                                              
50507,,Estación de tren Penyaflor,,37.7075020,-5.3416090,,,,,Europe/Madrid,2                                                                                                                                                                                                                                                                                  
50600,,Estación de tren Lora del Rio,,37.6613027,-5.5295472,,,,,Europe/Madrid,2                                                                                                                                                                                                                                                                               
51202,,Estación de tren Las Cabezas de San Juan,,37.0193453,-5.9465554,,,,,Europe/Madrid,2                                                                                                                                                                                                                                                                    
51409,,Estación de tren Cadiz-Estadio,,36.5028972,-6.2720638,,,,,Europe/Madrid,1                                                                                                                                                                                                                                                                              
51404,,Estación de tren Segunda Aguada,,36.5134777,-6.2770083,,,,,Europe/Madrid,1                                                                                                                                                                                                                                                                             
43021,,Estación de tren San Juan del Puerto,,37.3118980,-6.8410760,,,,,Europe/Madrid,2                                                                                                                                                                                                                                                                        
43015,,Estación de tren Niebla,,37.3587619,-6.6812578,,,,,Europe/Madrid,2                                                                                                                                                                                                                                                                                     
43009,,Estación de tren Escacena,,37.3978120,-6.3919800,,,,,Europe/Madrid,2                                                                                                                                                                                                                                                                                   
43008,,Estación de tren Carrion de Los Cespedes,,37.3689550,-6.3350880,,,,,Europe/Madrid,2                                                                                                                                                                                                                                                                    
43005,,Estación de tren Benacazon,,37.3567611,-6.2082805,,,,,Europe/Madrid,2                                                                                                                                                                                                                                                                                  
43012,,Estación de tren Villarrasa,,37.3869990,-6.5988190,,,,,Europe/Madrid,2                                                                                                                                                                                                                                                                                 
